[
    {
        "ID": 132387,
        "Title": "AeroParking - PC Comfort",
        "AddressLine1": "K letišti 1019/6",
        "AddressLine2": "Praha 6",
        "Town": "Praha",
        "Postcode": "161 00",
        "CountryID": 64,
        "Latitude": 50.1082834549997,
        "Longitude": 14.2707046331373,
        "ContactTelephone1": "+420267972070",
        "ContactEmail": "parking@prg.aero",
        "AccessComments": "Nabíjecí standard: CCS (50kW DC), CHAdeMO (50kW DC), Typ 2 (22kW AC)\r\nK dispozici: 0-24 hod\r\nCena nabíjení: zákazník nabíjí zdarma – platí pouze parking v ceně 60 Kč/hod. (platba je možná v hotovosti i kartou na přepážce Aeroparkingu nebo v automatech/ charging is free of charge – parking fee is 60 CZK per hour (cash or card)\r\nPoznámka: Vjezd je přes autopůjčovnu – nabíjecí stanice je v přízemí/ Please proceed through Car Rental Return – charging station is on the ground level\r\n\r\n",
        "RelatedURL": "https://www.aeroparking.cz/",
        "DistanceUnit": 0
    },
    {
        "ID": 118101,
        "Title": "VEOLIA OC Bucharova 50+22kW",
        "AddressLine1": "Bucharova",
        "AddressLine2": "Stodůlky",
        "Town": "Praha",
        "StateOrProvince": "okres Hlavní město Praha",
        "Postcode": "15500",
        "CountryID": 64,
        "Latitude": 50.0554208703551,
        "Longitude": 14.3422332587664,
        "DistanceUnit": 0
    },
    {
        "ID": 114939,
        "Title": "PRE IKEA Černý Most",
        "AddressLine1": "Chlumecká 664/10",
        "Town": "Praha",
        "Postcode": "19800",
        "CountryID": 64,
        "Latitude": 50.1045207578567,
        "Longitude": 14.5874063374724,
        "AccessComments": "V podzemních garážích 30 m od vchodu\r\nIn the underground garage 30 metres from IKEA Entrance",
        "DistanceUnit": 0
    },
    {
        "ID": 113850,
        "Title": "Globus, Zličín",
        "AddressLine1": "Sárská",
        "AddressLine2": "133/5",
        "Town": "Praha",
        "StateOrProvince": "okres Hlavní město Praha",
        "Postcode": "15500",
        "CountryID": 64,
        "Latitude": 50.052394024835,
        "Longitude": 14.2957714590434,
        "AccessComments": "Na parkovišti obchodního domu\r\nOn the Globus shoping center parking",
        "DistanceUnit": 0
    },
    {
        "ID": 108680,
        "Title": "EON Globus Kostelecká",
        "AddressLine1": "Kostelecká 823",
        "AddressLine2": "Čakovice",
        "Town": "Praha",
        "StateOrProvince": "okres Hlavní město Praha",
        "Postcode": "199 00",
        "CountryID": 64,
        "Latitude": 50.15146498,
        "Longitude": 14.50796266,
        "AccessComments": "přesné umístění ještě není známo",
        "RelatedURL": "http://www.kdenabijet.cz/mapa-stanic",
        "DistanceUnit": 0
    },
    {
        "ID": 108646,
        "Title": "EON OC Šestka",
        "AddressLine1": "Fajtlova 1090/1",
        "AddressLine2": "Ruzyně",
        "Town": "Praha",
        "StateOrProvince": "okres Hlavní město Praha",
        "Postcode": "16100",
        "CountryID": 64,
        "Latitude": 50.092562,
        "Longitude": 14.29085,
        "AccessComments": "V prvním patře garáží / on the 2nd floor",
        "RelatedURL": "https://nabijeni.eon-drive.cz/",
        "DistanceUnit": 0
    },
    {
        "ID": 107705,
        "Title": "Penny Market Lehovec",
        "AddressLine1": "Kolbenova 1094",
        "Town": "Praha",
        "StateOrProvince": "okres Hlavní město Praha",
        "Postcode": "19800",
        "CountryID": 64,
        "Latitude": 50.10819100000001,
        "Longitude": 14.546898746032753,
        "DistanceUnit": 0
    },
    {
        "ID": 106730,
        "Title": "Visionary ",
        "AddressLine1": "Železničářů 23",
        "AddressLine2": "Holešovice",
        "Town": "Praha",
        "StateOrProvince": "okres Hlavní město Praha",
        "Postcode": "17000",
        "CountryID": 64,
        "Latitude": 50.10725,
        "Longitude": 14.44225,
        "RelatedURL": "http://www.elektromobilita.cz",
        "DistanceUnit": 0
    },
    {
        "ID": 105581,
        "Title": "PRE Cinestar Anděl",
        "AddressLine1": "Radlická 3179/1E",
        "AddressLine2": "Smíchov",
        "Town": "Praha",
        "StateOrProvince": "okres Hlavní město Praha",
        "Postcode": "150 00",
        "CountryID": 64,
        "Latitude": 50.0711592,
        "Longitude": 14.4015589000001,
        "AccessComments": "V podzemních garážích u vstupu do kina sítě CineStar.\r\nVjezd do podzemních garáží je možný z ulice Stroupežnického a Radlická.",
        "DistanceUnit": 0
    },
    {
        "ID": 101749,
        "Title": "Stand By, s.r.o.",
        "AddressLine1": "Beranových 65",
        "Town": "Praha",
        "Postcode": "19900",
        "CountryID": 64,
        "Latitude": 50.1346626710439,
        "Longitude": 14.5148573082533,
        "ContactEmail": "elektromobilita@standby.cz",
        "AccessComments": "\r\n",
        "RelatedURL": "http://www.standby.cz",
        "DistanceUnit": 0
    },
    {
        "ID": 100720,
        "Title": "Hotel Josef",
        "AddressLine1": "Rybna 20",
        "Town": "Praha",
        "Postcode": "11000",
        "CountryID": 64,
        "Latitude": 50.089993,
        "Longitude": 14.42609,
        "ContactTelephone1": "+42 0221 700111",
        "DistanceUnit": 0
    },
    {
        "ID": 96257,
        "Title": "BBC 1 & 2",
        "AddressLine1": "Za Brumlovkou",
        "AddressLine2": "Michle",
        "Town": "Praha",
        "StateOrProvince": "okres Hlavní město Praha",
        "Postcode": "14000",
        "CountryID": 64,
        "Latitude": 50.0471725,
        "Longitude": 14.4553628,
        "RelatedURL": "http://www.elektromobilita.cz",
        "DistanceUnit": 0
    },
    {
        "ID": 94077,
        "Title": "PRE Zimní stadion Holešovice",
        "AddressLine1": "Za Elektrárnou 491/1",
        "AddressLine2": "Bubeneč",
        "Town": "Praha",
        "StateOrProvince": "okres Hlavní město Praha",
        "Postcode": "17000",
        "CountryID": 64,
        "Latitude": 50.1063132453129,
        "Longitude": 14.4348097277168,
        "AccessComments": "Demonstrace nových technologií. Na střeše jsou umístěny solární panely (7,35kW) a přístavba skrývá velký akumulátor (60kWh) pro skladování energie.",
        "DistanceUnit": 0
    },
    {
        "ID": 93602,
        "Title": "Restaurant SOHO",
        "AddressLine1": "Podolské nábřeží 1108/1",
        "AddressLine2": "Podolí",
        "Town": "Praha",
        "StateOrProvince": "okres Hlavní město Praha",
        "Postcode": "14700",
        "CountryID": 64,
        "Latitude": 50.0471853,
        "Longitude": 14.4135375,
        "DistanceUnit": 0
    },
    {
        "ID": 91515,
        "Title": "Praha - K Barandovu LIDL",
        "AddressLine1": "K Barrandovu 1139/3",
        "AddressLine2": "Hlubočepy",
        "Town": "Praha",
        "StateOrProvince": "okres Hlavní město Praha",
        "Postcode": "152 00",
        "CountryID": 64,
        "Latitude": 50.03244455274991,
        "Longitude": 14.382908208003977,
        "ContactEmail": "energie@lidl.cz",
        "RelatedURL": "http://www.lidl.cz",
        "DistanceUnit": 0
    },
    {
        "ID": 85858,
        "Title": "Hotel Andels  PRE",
        "AddressLine1": "Stroupežnického 3181/21",
        "AddressLine2": "Smíchov",
        "Town": "Praha",
        "StateOrProvince": "okres Hlavní město Praha",
        "Postcode": "15000",
        "CountryID": 64,
        "Latitude": 50.071039,
        "Longitude": 14.402678,
        "DistanceUnit": 0
    },
    {
        "ID": 85857,
        "Title": "OC Lužiny PRE",
        "AddressLine1": "Archeologická 2256/1",
        "AddressLine2": "Stodůlky",
        "Town": "Praha",
        "StateOrProvince": "okres Hlavní město Praha",
        "Postcode": "155 00",
        "CountryID": 64,
        "Latitude": 50.044064,
        "Longitude": 14.331559200000015,
        "AccessComments": "Před závorou",
        "DistanceUnit": 0
    },
    {
        "ID": 85816,
        "Title": "Hotel Hoffmeister",
        "AddressLine1": "144/7 Pod Bruskou 144/7",
        "Town": "Praha",
        "Postcode": "11800",
        "CountryID": 64,
        "Latitude": 50.092952,
        "Longitude": 14.409032,
        "ContactTelephone1": "+42 0251 017111",
        "DistanceUnit": 0
    },
    {
        "ID": 75792,
        "Title": "PREpoint Pražská energetika (2)",
        "AddressLine1": "Na Hroudě 2149/19",
        "AddressLine2": "Vršovice",
        "Town": "Praha",
        "StateOrProvince": "okres Hlavní město Praha",
        "Postcode": "10000",
        "CountryID": 64,
        "Latitude": 50.0702469,
        "Longitude": 14.481563499999993,
        "ContactTelephone1": "+420733143143",
        "ContactTelephone2": "+420734234832",
        "ContactEmail": "premobilita@pre.cz",
        "AccessComments": "CZ: Chytrá lampa PREpoint pro nabíjení elektormobilů, elektrokol a elektroskutrů. Služby Wiffi FREE, SOS tlačítko na 112. Karta k nabíjení na recepci PRE.\r\nEN: Smart lamp with free Wifi, weather station and emergency button. Card to charge is at the reception PRE.",
        "RelatedURL": "https://www.premobilita.cz/cs/nabijeni/",
        "DistanceUnit": 0
    },
    {
        "ID": 74638,
        "Title": "PRE Výstaviště",
        "AddressLine1": "Za Elektrárnou",
        "AddressLine2": "Holešovice",
        "Town": "Praha",
        "StateOrProvince": "okres Hlavní město Praha",
        "Postcode": "17000",
        "CountryID": 64,
        "Latitude": 50.108367892956,
        "Longitude": 14.4308109238727,
        "ContactTelephone1": "+420733143143",
        "ContactTelephone2": "+420734234832",
        "ContactEmail": "premobilita@pre.cz",
        "AccessComments": "CZ: u vstupu na bazén\r\nEN: near the entrance to the swimming pool",
        "RelatedURL": "https://www.premobilita.cz/cs/nabijeni/",
        "DistanceUnit": 0
    },
    {
        "ID": 74546,
        "Title": "ČEZ VŠE Praha 3",
        "AddressLine1": "náměstí Winstona Churchilla",
        "AddressLine2": "Žižkov",
        "Town": "Praha",
        "StateOrProvince": "okres Hlavní město Praha",
        "Postcode": "13000",
        "CountryID": 64,
        "Latitude": 50.084287660159966,
        "Longitude": 14.441239162650405,
        "RelatedURL": "http://www.elektromobilita.cz",
        "DistanceUnit": 0
    },
    {
        "ID": 72865,
        "Title": "ELTODO Parking Centrum",
        "AddressLine1": "Wilsonova 372/6",
        "AddressLine2": "Nové Město",
        "Town": "Praha",
        "StateOrProvince": "okres Hlavní město Praha",
        "Postcode": "12000",
        "CountryID": 64,
        "Latitude": 50.0808194,
        "Longitude": 14.4331392,
        "ContactTelephone1": " +420 725 874 317",
        "ContactEmail": "spolekp@eltodo.cz",
        "AccessComments": "Temporary for free. For charge start visit site EVmapa.cz and run it.\r\nDočasně zdarma, spuštění nabíjení přes EVmapa.cz",
        "RelatedURL": "http://www.parking-centrum.cz",
        "DistanceUnit": 0
    },
    {
        "ID": 72247,
        "Title": "BILLA Říčany",
        "AddressLine1": "Černokostelecká 1919/12",
        "AddressLine2": "Nedvězí u Říčan",
        "Town": "Praha",
        "StateOrProvince": "okres Hlavní město Praha",
        "CountryID": 64,
        "Latitude": 50.0053831734251,
        "Longitude": 14.6542803988114,
        "DistanceUnit": 0
    },
    {
        "ID": 72080,
        "Title": "Corso Court Karlín",
        "AddressLine1": "Křižíkova 34a",
        "AddressLine2": "Karlín",
        "Town": "Praha",
        "StateOrProvince": "okres Hlavní město Praha",
        "Postcode": "18600",
        "CountryID": 64,
        "Latitude": 50.09177,
        "Longitude": 14.451188,
        "AccessComments": "CZ: Placená, je potřebná smlouva pro získání RFID karty od ČEZu (paušální platba) \r\nEN: Paid, contract needed to get an RFID card from ČEZ (flat payment)",
        "RelatedURL": "http://www.elektromobilita.cz",
        "DistanceUnit": 0
    },
    {
        "ID": 70809,
        "Title": "Praha - Chodovská Burger King ČEZ",
        "AddressLine1": "Chodovská 3/228",
        "AddressLine2": "Záběhlice",
        "Town": "Praha",
        "StateOrProvince": "okres Hlavní město Praha",
        "Postcode": "14100",
        "CountryID": 64,
        "Latitude": 50.053032,
        "Longitude": 14.473618,
        "ContactTelephone1": "",
        "ContactTelephone2": "",
        "ContactEmail": "",
        "AccessComments": "CZ: Placená, je potřebná smlouva pro získání RFID karty od ČEZu (paušální platba) .EN: Paid, contract needed to get an RFID card from ČEZ (flat payment).",
        "RelatedURL": "http://www.elektromobilita.cz",
        "DistanceUnit": 0
    },
    {
        "ID": 70392,
        "Title": "DAHO Klimentská",
        "AddressLine1": "Klimentská 1216/46",
        "AddressLine2": "Nové Město",
        "Town": "Praha",
        "StateOrProvince": "okres Hlavní město Praha",
        "Postcode": "11000",
        "CountryID": 64,
        "Latitude": 50.0922741,
        "Longitude": 14.433836100000008,
        "ContactTelephone1": "+420 607 409 409 ",
        "ContactTelephone2": "+420 223 000 278",
        "ContactEmail": "info@daho.cz",
        "RelatedURL": "http://www.daho.cz",
        "DistanceUnit": 0
    },
    {
        "ID": 70385,
        "Title": "Alcron Praha",
        "AddressLine1": "Štěpánská 623/40",
        "AddressLine2": "Nové Město",
        "Town": "Praha",
        "StateOrProvince": "okres Hlavní město Praha",
        "Postcode": "11121",
        "CountryID": 64,
        "Latitude": 50.0798495,
        "Longitude": 14.4268235,
        "ContactTelephone1": "+420 222 820 000",
        "ContactEmail": "guest.prague@radissonblu.com",
        "AccessComments": "Pro návštěvníky hotelu nabíjení během parkování zdarma",
        "RelatedURL": "http://www.alcron.cz/alcron/parkovani/",
        "DistanceUnit": 0
    },
    {
        "ID": 69081,
        "Title": "Auto Jarov - Quickcharger",
        "AddressLine1": "Osiková 2",
        "AddressLine2": "Žižkov",
        "Town": "Praha",
        "StateOrProvince": "okres Hlavní město Praha",
        "Postcode": "13004",
        "CountryID": 64,
        "Latitude": 50.090725,
        "Longitude": 14.49893,
        "DistanceUnit": 0
    },
    {
        "ID": 69000,
        "Title": "Mr. Parkit",
        "AddressLine1": "Španělská 12",
        "AddressLine2": "Praha 2",
        "Town": "Praha",
        "StateOrProvince": "okres Hlavní město Praha",
        "Postcode": "120 00",
        "CountryID": 64,
        "Latitude": 50.0801564848591,
        "Longitude": 14.435794817791,
        "ContactTelephone1": "+420730513544",
        "ContactEmail": "info@mrparkit.com",
        "AccessComments": "The charging is in cooperation with Polyfazer. Just book your parking lot on www.mrparkit.com, download the app and start charging.\r\n Aufgeladen wird in Zusammenarbeit mit Polyfazer. Es reicht den Parkplatz unter www.mrparkit.com zu reservieren, die App herunterladen und tanken. \r\nNabíjíme ve spolupráci s Polyfazer. Stačí si zarezervovat parkovací místo na www.mrparkit.com, stáhnout aplikaci a můžete nabíjet.",
        "RelatedURL": "https://www.mrparkit.com/en",
        "DistanceUnit": 0
    },
    {
        "ID": 66308,
        "Title": "PNEU Šafránek",
        "AddressLine1": "Národních hrdinů 898",
        "AddressLine2": "Dolní Počernice",
        "Town": "Praha",
        "StateOrProvince": "okres Hlavní město Praha",
        "Postcode": "19012",
        "CountryID": 64,
        "Latitude": 50.0788,
        "Longitude": 14.5695,
        "ContactTelephone1": "+420 602 142 222",
        "ContactTelephone2": "+420 270 007 900",
        "ContactEmail": "info@polyfazer.cz",
        "AccessComments": "CZ: Po-Pá 8:00-17:00, So 8:00-13:00\r\nEN: Mon-Fri 8:00-17:00, Sat 8:00-13:00",
        "RelatedURL": "http://www.polyfazer.com",
        "DistanceUnit": 0
    },
    {
        "ID": 56597,
        "Title": "Žižkovská věž",
        "AddressLine1": "Mahlerovy sady 1",
        "AddressLine2": "Vinohrady",
        "Town": "Praha",
        "StateOrProvince": "okres Hlavní město Praha",
        "Postcode": "18600",
        "CountryID": 64,
        "Latitude": 50.080734,
        "Longitude": 14.451343,
        "RelatedURL": "http://www.elektromobilita.cz",
        "DistanceUnit": 0
    },
    {
        "ID": 54842,
        "Title": "PRE Centrum Černý Most ",
        "AddressLine1": "Chlumecká 765/6",
        "AddressLine2": "Černý Most",
        "Town": "Praha",
        "StateOrProvince": "okres Hlavní město Praha",
        "Postcode": "19015",
        "CountryID": 64,
        "Latitude": 50.108418303681766,
        "Longitude": 14.58389432490867,
        "ContactTelephone1": "+420734234832",
        "ContactTelephone2": "+420281918110",
        "AccessComments": "(10 stations), 8x in underground parking 1PP orange and yelow section, 2x overground parking  ground floor exit \"south\"",
        "RelatedURL": "https://www.premobilita.cz/",
        "DistanceUnit": 0
    },
    {
        "ID": 54841,
        "Title": "PRE ÚMČ Praha 22-Uhříněve",
        "AddressLine1": "Nové náměstí 1250",
        "AddressLine2": "Uhříněves",
        "Town": "Praha",
        "StateOrProvince": "okres Hlavní město Praha",
        "Postcode": "10400",
        "CountryID": 64,
        "Latitude": 50.031941,
        "Longitude": 14.599307,
        "ContactTelephone1": "+420271071812",
        "RelatedURL": "http://www.praha22.cz/",
        "DistanceUnit": 0
    },
    {
        "ID": 54840,
        "Title": "PRE Transfer Energy",
        "AddressLine1": "Beranových 65",
        "AddressLine2": "Letňany",
        "Town": "Praha",
        "StateOrProvince": "okres Hlavní město Praha",
        "Postcode": "19900",
        "CountryID": 64,
        "Latitude": 50.135,
        "Longitude": 14.5143,
        "ContactTelephone1": "+420234313201",
        "RelatedURL": "http://www.transferenergy.cz/",
        "DistanceUnit": 0
    },
    {
        "ID": 54839,
        "Title": "PRE Galerie Harfa",
        "AddressLine1": "Českomoravská 2420",
        "AddressLine2": "Libeň",
        "Town": "Praha",
        "StateOrProvince": "okres Hlavní město Praha",
        "Postcode": "19000",
        "CountryID": 64,
        "Latitude": 50.1033815,
        "Longitude": 14.490651299999968,
        "ContactTelephone1": "+420266055601",
        "RelatedURL": "http://www.galerieharfa.cz/",
        "DistanceUnit": 0
    },
    {
        "ID": 54838,
        "Title": "PRE Skanska",
        "AddressLine1": "Líbalova 2348",
        "AddressLine2": "Chodov",
        "Town": "Praha",
        "StateOrProvince": "okres Hlavní město Praha",
        "Postcode": "14900",
        "CountryID": 64,
        "Latitude": 50.0302533,
        "Longitude": 14.508535299999949,
        "ContactTelephone1": "+420267095111",
        "RelatedURL": "http://www.skanska.cz/",
        "DistanceUnit": 0
    },
    {
        "ID": 54837,
        "Title": "PRE Europark Štěrboholy",
        "AddressLine1": "Nákupní 389",
        "AddressLine2": "Štěrboholy",
        "Town": "Praha",
        "StateOrProvince": "okres Hlavní město Praha",
        "Postcode": "108 00",
        "CountryID": 64,
        "Latitude": 50.072593,
        "Longitude": 14.542169100000024,
        "ContactTelephone1": "+420234672320",
        "RelatedURL": "http://www.europark.cz/",
        "DistanceUnit": 0
    },
    {
        "ID": 54836,
        "Title": "PRE Sconto Stodůlky",
        "AddressLine1": "Jeremiášova 947",
        "AddressLine2": "Stodůlky",
        "Town": "Praha",
        "StateOrProvince": "okres Hlavní město Praha",
        "Postcode": "16300",
        "CountryID": 64,
        "Latitude": 50.0552325,
        "Longitude": 14.310733000000027,
        "ContactTelephone1": "+420257893111",
        "RelatedURL": "http://www.sconto.cz/",
        "DistanceUnit": 0
    },
    {
        "ID": 54835,
        "Title": "PRE ČVUT Fakulta dopravní",
        "AddressLine1": "Horská 2040/3",
        "AddressLine2": "Nové Město",
        "Town": "Praha",
        "StateOrProvince": "okres Hlavní město Praha",
        "Postcode": "12800",
        "CountryID": 64,
        "Latitude": 50.0673565,
        "Longitude": 14.4241559,
        "ContactTelephone1": "+420224355087",
        "RelatedURL": "http://www.fd.cvut.cz/",
        "DistanceUnit": 0
    },
    {
        "ID": 54834,
        "Title": "PRE ÚMČ Praha 13-Stodůlky",
        "AddressLine1": "Sluneční náměstí 2580/13",
        "AddressLine2": "Stodůlky",
        "Town": "Praha",
        "StateOrProvince": "okres Hlavní město Praha",
        "Postcode": "15800",
        "CountryID": 64,
        "Latitude": 50.0505117,
        "Longitude": 14.344378,
        "ContactTelephone1": "+420235011111",
        "RelatedURL": "http://www.praha13.cz/",
        "DistanceUnit": 0
    },
    {
        "ID": 54833,
        "Title": "PRE KD Mlejn",
        "AddressLine1": "Kovářova 1615/4",
        "AddressLine2": "Stodůlky",
        "Town": "Praha",
        "StateOrProvince": "okres Hlavní město Praha",
        "Postcode": "15500",
        "CountryID": 64,
        "Latitude": 50.0490546,
        "Longitude": 14.317024899999979,
        "ContactTelephone1": "+420235314734",
        "RelatedURL": "http://www.mlejn.cz/",
        "DistanceUnit": 0
    },
    {
        "ID": 54832,
        "Title": "PRE Avion Shopping Park Praha Zličín",
        "AddressLine1": "Skandinávská 131/1",
        "Town": "Praha",
        "StateOrProvince": "okres Hlavní město Praha",
        "Postcode": "15521",
        "CountryID": 64,
        "Latitude": 50.051188,
        "Longitude": 14.297401,
        "ContactTelephone1": "+420296777999",
        "RelatedURL": "http://www.prague.avion.cz/",
        "DistanceUnit": 0
    },
    {
        "ID": 54816,
        "Title": "PRE Centrum Chodov",
        "AddressLine1": "Hráského 29",
        "AddressLine2": "Chodov",
        "Town": "Praha",
        "StateOrProvince": "okres Hlavní město Praha",
        "Postcode": "148 00",
        "CountryID": 64,
        "Latitude": 50.0302509132612,
        "Longitude": 14.4889732207839,
        "ContactTelephone1": "+420734234832",
        "ContactTelephone2": "+420272173600",
        "AccessComments": "CZ: garáže -M. patro v nové částiEN: parking  garage in new section floor -M  Tři nové stanice fungují v nově otevřené části OC Chodov, které prošlo významným stavebním rozšířením.2x ABB Terra 53 CJG (CHAdeMO, CCS, Typ2)2x PRE EVF 200 duální stanice ( 2x Typ2)1x PRE EVF 100 Ensto (Typ2 + 230V/16A)",
        "RelatedURL": "http://www.premobilita.cz/",
        "DistanceUnit": 0
    },
    {
        "ID": 54815,
        "Title": "PRE Parking Centrum",
        "AddressLine1": "Wilsonova 372",
        "AddressLine2": "Nové Město",
        "Town": "Praha",
        "StateOrProvince": "okres Hlavní město Praha",
        "Postcode": "12000",
        "CountryID": 64,
        "Latitude": 50.081113,
        "Longitude": 14.433303,
        "ContactTelephone1": "+420734234832",
        "ContactTelephone2": "+420224210957",
        "AccessComments": "poblíž výjezdu u garáží",
        "RelatedURL": "http://www.premobilita.cz/",
        "DistanceUnit": 0
    },
    {
        "ID": 54814,
        "Title": "PRE ÚMČ Praha 5",
        "AddressLine1": "Štefánikova 246/15",
        "AddressLine2": "Smíchov",
        "Town": "Praha",
        "StateOrProvince": "okres Hlavní město Praha",
        "Postcode": "15000",
        "CountryID": 64,
        "Latitude": 50.0733837,
        "Longitude": 14.403569699999935,
        "DistanceUnit": 0
    },
    {
        "ID": 54813,
        "Title": "PRE K K Hotel Fenix",
        "AddressLine1": "Ve Smečkách",
        "AddressLine2": "Nové Město",
        "Town": "Praha",
        "StateOrProvince": "okres Hlavní město Praha",
        "Postcode": "11000",
        "CountryID": 64,
        "Latitude": 50.0796208,
        "Longitude": 14.427615400000036,
        "ContactTelephone1": "+420225012000",
        "RelatedURL": "http://cz.kkhotels.com/",
        "DistanceUnit": 0
    },
    {
        "ID": 54812,
        "Title": "Nákupní Galerie Fénix Vysočanská",
        "AddressLine1": "Freyova 945/35",
        "AddressLine2": "Vysočany",
        "Town": "Praha",
        "StateOrProvince": "okres Hlavní město Praha",
        "Postcode": "19000",
        "CountryID": 64,
        "Latitude": 50.1102918,
        "Longitude": 14.5015949,
        "ContactTelephone1": "+420 270 007 900",
        "ContactTelephone2": "+420 606 372 323",
        "ContactEmail": "info@polyfazer.cz",
        "AccessComments": "CZ: 1. podzemní podlaží u vjezdu do Clarion Kongress Hotel. Nonstop.\r\nEN: 1st underground floor next to entrance to Clarion Kongress Hotel. Nonstop.",
        "RelatedURL": "http://polyfazer.cz/",
        "DistanceUnit": 0
    },
    {
        "ID": 52948,
        "Title": "Česká inspekce životního prostředí ",
        "AddressLine1": "Na břehu 267/1a",
        "AddressLine2": "Vysočany",
        "Town": "Praha",
        "StateOrProvince": "okres Hlavní město Praha",
        "Postcode": "19000",
        "CountryID": 64,
        "Latitude": 50.1099676,
        "Longitude": 14.49610180000002,
        "ContactTelephone1": "+420 222 860 301",
        "ContactEmail": "hankova_lenka@cizp.cz",
        "AccessComments": "Po - Pá 6:00 - 18:00",
        "DistanceUnit": 0
    },
    {
        "ID": 52946,
        "Title": "SOLAR CENTER, a.s. ",
        "AddressLine1": "Střešovická 1068/35",
        "AddressLine2": "Střešovice",
        "Town": "Praha",
        "StateOrProvince": "okres Hlavní město Praha",
        "Postcode": "16200",
        "CountryID": 64,
        "Latitude": 50.0931547,
        "Longitude": 14.37023499999998,
        "ContactTelephone1": "+420 222 742 447",
        "ContactTelephone2": "+420 222 742 448",
        "ContactEmail": "vehicles@solarcenter.cz",
        "RelatedURL": "http://www.solarcenter.cz",
        "DistanceUnit": 0
    },
    {
        "ID": 52904,
        "Title": "Dobíjecí stanice Siemens ",
        "AddressLine1": "Siemensova 2715/1",
        "AddressLine2": "Stodůlky",
        "Town": "Praha",
        "StateOrProvince": "okres Hlavní město Praha",
        "Postcode": "15500",
        "CountryID": 64,
        "Latitude": 50.0478255,
        "Longitude": 14.3068901,
        "ContactTelephone1": "+420 233 031 111",
        "ContactEmail": "siemens.cz@siemens.com",
        "DistanceUnit": 0
    },
    {
        "ID": 51501,
        "Title": "Vinci Park - Letiště Praha",
        "AddressLine1": "Aviatická 1092/8",
        "AddressLine2": "Ruzyně",
        "Town": "Praha",
        "Postcode": "161 00",
        "CountryID": 64,
        "Latitude": 50.10700990849798,
        "Longitude": 14.270005175038477,
        "RelatedURL": "http://www.elektromobilita.cz/",
        "DistanceUnit": 0
    },
    {
        "ID": 51492,
        "Title": "Arkády Pankrác",
        "AddressLine1": "Na Pankráci 86",
        "Town": "Praha",
        "Postcode": "140 00",
        "CountryID": 64,
        "Latitude": 50.0511586,
        "Longitude": 14.4391031,
        "RelatedURL": "http://www.elektromobilita.cz/",
        "DistanceUnit": 0
    }
]
